[
  {
    "name": "해피주유소",
    "category": "쌍용S-oil주유소",
    "address": "광주 광산구 건재로 761",
    "district": "광산구",
    "dong": "",
    "lat": 35.0815317724595,
    "lng": 126.766612753503,
    "dataDate": "2025-09-24"
  },
  {
    "name": "(주)명진주유소",
    "category": "GS주유소",
    "address": "광주 광산구 고봉로 21",
    "district": "광산구",
    "dong": "",
    "lat": 35.1829712009721,
    "lng": 126.804634276112,
    "dataDate": "2025-09-24"
  },
  {
    "name": "에이치에스에너지 장수주유소",
    "category": "현대정유오일뱅크",
    "address": "광주 광산구 고봉로 239",
    "district": "광산구",
    "dong": "",
    "lat": 35.1851834590982,
    "lng": 126.78447971564,
    "dataDate": "2025-09-24"
  },
  {
    "name": "SK시민주유소",
    "category": "SK주유소",
    "address": "광주 광산구 고봉로 249",
    "district": "광산구",
    "dong": "",
    "lat": 35.1858146853941,
    "lng": 126.783272096732,
    "dataDate": "2025-09-24"
  },
  {
    "name": "스마일셀프주유소",
    "category": "SK주유소",
    "address": "광주 광산구 고봉로 541",
    "district": "광산구",
    "dong": "",
    "lat": 35.2034987344813,
    "lng": 126.761028668122,
    "dataDate": "2025-09-24"
  },
  {
    "name": "푸른솔주유소",
    "category": "쌍용S-oil주유소",
    "address": "광주 광산구 고봉로 905",
    "district": "광산구",
    "dong": "",
    "lat": 35.2254474427889,
    "lng": 126.735522697984,
    "dataDate": "2025-09-24"
  },
  {
    "name": "평동천우주유소",
    "category": "SK주유소",
    "address": "광주 광산구 동곡로 655",
    "district": "광산구",
    "dong": "",
    "lat": 35.1400503301866,
    "lng": 126.775923029427,
    "dataDate": "2025-09-24"
  },
  {
    "name": "더그린 푸른주유소",
    "category": "GS주유소",
    "address": "광주 광산구 동곡로 104",
    "district": "광산구",
    "dong": "",
    "lat": 35.0927016386721,
    "lng": 126.773180458016,
    "dataDate": "2025-09-24"
  },
  {
    "name": "한성골드주유소",
    "category": "GS주유소",
    "address": "광주 광산구 동곡로 407",
    "district": "광산구",
    "dong": "",
    "lat": 35.1186373812017,
    "lng": 126.780147373096,
    "dataDate": "2025-09-24"
  },
  {
    "name": "광주주유소",
    "category": "쌍용S-oil주유소",
    "address": "광주 광산구 동곡로 422",
    "district": "광산구",
    "dong": "",
    "lat": 35.1200350491494,
    "lng": 126.780702337413,
    "dataDate": "2025-09-24"
  },
  {
    "name": "송정동일주유소",
    "category": "GS주유소",
    "address": "광주 광산구 동곡로 450",
    "district": "광산구",
    "dong": "",
    "lat": 35.1228966114413,
    "lng": 126.779611638385,
    "dataDate": "2025-09-24"
  },
  {
    "name": "SK버들주유소",
    "category": "SK주유소",
    "address": "광주 광산구 동곡로 510",
    "district": "광산구",
    "dong": "",
    "lat": 35.1267710527161,
    "lng": 126.776230506899,
    "dataDate": "2025-09-24"
  },
  {
    "name": "프라임주유소",
    "category": "쌍용S-oil주유소",
    "address": "광주 광산구 목련로 216",
    "district": "광산구",
    "dong": "",
    "lat": 35.1717717368779,
    "lng": 126.821430748389,
    "dataDate": "2025-09-24"
  },
  {
    "name": "서강주유소",
    "category": "SK주유소",
    "address": "광주 광산구 목련로 250",
    "district": "광산구",
    "dong": "",
    "lat": 35.1732034410008,
    "lng": 126.824694298276,
    "dataDate": "2025-09-24"
  },
  {
    "name": "신광주셀프주유소",
    "category": "쌍용S-oil주유소",
    "address": "광주 광산구 목련로 372-8",
    "district": "광산구",
    "dong": "",
    "lat": 35.1809420009148,
    "lng": 126.833423398473,
    "dataDate": "2025-09-24"
  },
  {
    "name": "웰컴신가주유소",
    "category": "GS주유소",
    "address": "광주 광산구 목련로 375",
    "district": "광산구",
    "dong": "",
    "lat": 35.1821614715523,
    "lng": 126.831942409889,
    "dataDate": "2025-09-24"
  },
  {
    "name": "GS칼텍스 어등산상주유소",
    "category": "주유소",
    "address": "광주 광산구 무진대로 125",
    "district": "광산구",
    "dong": "",
    "lat": 35.1618048442481,
    "lng": 126.793973582782,
    "dataDate": "2025-09-24"
  },
  {
    "name": "어등산주유소",
    "category": "현대정유오일뱅크",
    "address": "광주 광산구 무진대로 68",
    "district": "광산구",
    "dong": "",
    "lat": 35.159971184376,
    "lng": 126.788413526053,
    "dataDate": "2025-09-24"
  },
  {
    "name": "신창 구도일주유소",
    "category": "쌍용S-oil주유소",
    "address": "광주 광산구 북문대로 350",
    "district": "광산구",
    "dong": "",
    "lat": 35.1907011993344,
    "lng": 126.8548991601,
    "dataDate": "2025-09-24"
  },
  {
    "name": "다올에너지산업 SK주유소",
    "category": "SK주유소",
    "address": "광주 광산구 북문대로 389",
    "district": "광산구",
    "dong": "",
    "lat": 35.1917178129709,
    "lng": 126.850653480129,
    "dataDate": "2025-09-24"
  },
  {
    "name": "산월셀프주유소",
    "category": "현대정유오일뱅크",
    "address": "광주 광산구 북문대로 579",
    "district": "광산구",
    "dong": "",
    "lat": 35.2042992601017,
    "lng": 126.836892486635,
    "dataDate": "2025-09-24"
  },
  {
    "name": "대근주유소",
    "category": "GS주유소",
    "address": "광주 광산구 북문대로 639",
    "district": "광산구",
    "dong": "",
    "lat": 35.2080387198291,
    "lng": 126.832485769367,
    "dataDate": "2025-09-24"
  },
  {
    "name": "광장주유소",
    "category": "쌍용S-oil주유소",
    "address": "광주 광산구 북문대로 907",
    "district": "광산구",
    "dong": "",
    "lat": 35.2314365999679,
    "lng": 126.824920757972,
    "dataDate": "2025-09-24"
  },
  {
    "name": "첨단태양주유소",
    "category": "현대정유오일뱅크",
    "address": "광주 광산구 비아동원촌길 89",
    "district": "광산구",
    "dong": "비아동",
    "lat": 35.2215813860004,
    "lng": 126.829622426948,
    "dataDate": "2025-09-24"
  },
  {
    "name": "신촌주유소",
    "category": "쌍용S-oil주유소",
    "address": "광주 광산구 사암로 63",
    "district": "광산구",
    "dong": "",
    "lat": 35.1501535616132,
    "lng": 126.807137208036,
    "dataDate": "2025-09-24"
  },
  {
    "name": "마트몰주유소 송헌지점",
    "category": "SK주유소",
    "address": "광주 광산구 사암로 104",
    "district": "광산구",
    "dong": "",
    "lat": 35.1536335299797,
    "lng": 126.807648216622,
    "dataDate": "2025-09-24"
  },
  {
    "name": "HD현대오일뱅크직영 하남제일주유소",
    "category": "현대정유오일뱅크",
    "address": "광주 광산구 사암로 754",
    "district": "광산구",
    "dong": "",
    "lat": 35.2097112597502,
    "lng": 126.817274678183,
    "dataDate": "2025-09-24"
  },
  {
    "name": "대창석유직영 공단주유소",
    "category": "현대정유오일뱅크",
    "address": "광주 광산구 사암로 800",
    "district": "광산구",
    "dong": "",
    "lat": 35.2137776426508,
    "lng": 126.81909587444,
    "dataDate": "2025-09-24"
  },
  {
    "name": "실크로드주유소",
    "category": "SK주유소",
    "address": "광주 광산구 사암로 866",
    "district": "광산구",
    "dong": "",
    "lat": 35.2170913852244,
    "lng": 126.825121150221,
    "dataDate": "2025-09-24"
  },
  {
    "name": "삼도 주유소",
    "category": "SK주유소",
    "address": "광주 광산구 삼도로 327",
    "district": "광산구",
    "dong": "",
    "lat": 35.1633366146569,
    "lng": 126.698816457448,
    "dataDate": "2025-09-24"
  },
  {
    "name": "슈퍼크린주유소",
    "category": "쌍용S-oil주유소",
    "address": "광주 광산구 상무대로 372",
    "district": "광산구",
    "dong": "",
    "lat": 35.1437482128976,
    "lng": 126.806336437464,
    "dataDate": "2025-09-24"
  },
  {
    "name": "이칠주유소",
    "category": "SK주유소",
    "address": "광주 광산구 상무대로 378",
    "district": "광산구",
    "dong": "",
    "lat": 35.1437396707585,
    "lng": 126.807140707345,
    "dataDate": "2025-09-24"
  },
  {
    "name": "대천유통 진곡화물차주유소",
    "category": "쌍용S-oil주유소",
    "address": "광주 광산구 손재로 327",
    "district": "광산구",
    "dong": "",
    "lat": 35.1942893749902,
    "lng": 126.793637078668,
    "dataDate": "2025-09-24"
  },
  {
    "name": "송정현대주유소",
    "category": "현대정유오일뱅크",
    "address": "광주 광산구 송도로 104",
    "district": "광산구",
    "dong": "",
    "lat": 35.1263442040958,
    "lng": 126.788395976266,
    "dataDate": "2025-09-24"
  },
  {
    "name": "한진주유소",
    "category": "쌍용S-oil주유소",
    "address": "광주 광산구 송도로 244",
    "district": "광산구",
    "dong": "",
    "lat": 35.1351061919828,
    "lng": 126.797595031176,
    "dataDate": "2025-09-24"
  },
  {
    "name": "진영 주유소",
    "category": "SK주유소",
    "address": "광주 광산구 송도로 292",
    "district": "광산구",
    "dong": "",
    "lat": 35.1390635634149,
    "lng": 126.800552087793,
    "dataDate": "2025-09-24"
  },
  {
    "name": "유한회사 연성주유소",
    "category": "쌍용S-oil주유소",
    "address": "광주 광산구 어등대로 247",
    "district": "광산구",
    "dong": "",
    "lat": 35.1520067723616,
    "lng": 126.75107860478,
    "dataDate": "2025-09-24"
  },
  {
    "name": "전송주유소",
    "category": "SK주유소",
    "address": "광주 광산구 어등대로 583",
    "district": "광산구",
    "dong": "",
    "lat": 35.1510450641046,
    "lng": 126.786682910072,
    "dataDate": "2025-09-24"
  },
  {
    "name": "순양주유소",
    "category": "쌍용S-oil주유소",
    "address": "광주 광산구 어등대로 667",
    "district": "광산구",
    "dong": "",
    "lat": 35.144687337864,
    "lng": 126.790930499862,
    "dataDate": "2025-09-24"
  },
  {
    "name": "현대오일뱅크 우공주유소",
    "category": "현대정유오일뱅크",
    "address": "광주 광산구 영광로 3492",
    "district": "광산구",
    "dong": "",
    "lat": 35.1598684395958,
    "lng": 126.688537257136,
    "dataDate": "2025-09-24"
  },
  {
    "name": "천지주유소",
    "category": "SK주유소",
    "address": "광주 광산구 영광로 3270",
    "district": "광산구",
    "dong": "",
    "lat": 35.1673842124021,
    "lng": 126.666530250629,
    "dataDate": "2025-09-24"
  },
  {
    "name": "HD현대오일뱅크 장덕셀프주유소",
    "category": "현대정유오일뱅크",
    "address": "광주 광산구 왕버들로 59",
    "district": "광산구",
    "dong": "",
    "lat": 35.2026312077315,
    "lng": 126.81731557554,
    "dataDate": "2025-09-24"
  },
  {
    "name": "대각주유소",
    "category": "GS주유소",
    "address": "광주 광산구 용아로 143",
    "district": "광산구",
    "dong": "",
    "lat": 35.1560924196777,
    "lng": 126.799465698439,
    "dataDate": "2025-09-24"
  },
  {
    "name": "브이넥스 푸른7주유소",
    "category": "SK주유소",
    "address": "광주 광산구 용아로 330",
    "district": "광산구",
    "dong": "",
    "lat": 35.1728261816259,
    "lng": 126.804022844522,
    "dataDate": "2025-09-24"
  },
  {
    "name": "대천주유소",
    "category": "쌍용S-oil주유소",
    "address": "광주 광산구 용진로 599",
    "district": "광산구",
    "dong": "",
    "lat": 35.1933747254906,
    "lng": 126.746775077701,
    "dataDate": "2025-09-24"
  },
  {
    "name": "대촌주유소",
    "category": "쌍용S-oil주유소",
    "address": "광주 남구 고싸움로 169",
    "district": "남구",
    "dong": "",
    "lat": 35.0818555053217,
    "lng": 126.831484432364,
    "dataDate": "2025-09-24"
  },
  {
    "name": "드림에너지주유소",
    "category": "SK주유소",
    "address": "광주 남구 대남대로 336",
    "district": "남구",
    "dong": "",
    "lat": 35.1418450709958,
    "lng": 126.89383396972,
    "dataDate": "2025-09-24"
  },
  {
    "name": "새론주유소",
    "category": "쌍용S-oil주유소",
    "address": "광주 남구 대남대로 347",
    "district": "남구",
    "dong": "",
    "lat": 35.1425242692216,
    "lng": 126.892428166397,
    "dataDate": "2025-09-24"
  },
  {
    "name": "대남로주유소",
    "category": "SK주유소",
    "address": "광주 남구 대남대로 399",
    "district": "남구",
    "dong": "",
    "lat": 35.146431919923,
    "lng": 126.889400592943,
    "dataDate": "2025-09-24"
  },
  {
    "name": "양촌주유소",
    "category": "SK주유소",
    "address": "광주 남구 포충로 121",
    "district": "남구",
    "dong": "",
    "lat": 35.060761034996,
    "lng": 126.790870836478,
    "dataDate": "2025-09-24"
  },
  {
    "name": "대촌상주유소",
    "category": "쌍용S-oil주유소",
    "address": "광주 남구 회재로 206",
    "district": "남구",
    "dong": "",
    "lat": 35.0818048438964,
    "lng": 126.831157224435,
    "dataDate": "2025-09-24"
  },
  {
    "name": "풍암주유소",
    "category": "GS주유소",
    "address": "광주 남구 회재로 1208",
    "district": "남구",
    "dong": "",
    "lat": 35.1327310343235,
    "lng": 126.89352585579,
    "dataDate": "2025-09-24"
  },
  {
    "name": "화력주유소",
    "category": "GS주유소",
    "address": "광주 남구 회재로 338",
    "district": "남구",
    "dong": "",
    "lat": 35.0932865512369,
    "lng": 126.826417522386,
    "dataDate": "2025-09-24"
  },
  {
    "name": "솔바우주유소",
    "category": "쌍용S-oil주유소",
    "address": "광주 동구 남계길 4",
    "district": "동구",
    "dong": "",
    "lat": 35.0965270813116,
    "lng": 126.939903933065,
    "dataDate": "2025-09-24"
  },
  {
    "name": "평화셀프주유소/주식회사 반디컴퍼니",
    "category": "주유소",
    "address": "광주 북구 경열로 257",
    "district": "북구",
    "dong": "",
    "lat": 35.1623648776286,
    "lng": 126.907553816659,
    "dataDate": "2025-09-24"
  },
  {
    "name": "두암주유소",
    "category": "쌍용S-oil주유소",
    "address": "광주 북구 군왕로 103",
    "district": "북구",
    "dong": "",
    "lat": 35.1702972029047,
    "lng": 126.931923023541,
    "dataDate": "2025-09-24"
  },
  {
    "name": "북성주유소",
    "category": "GS주유소",
    "address": "광주 북구 금남로 49",
    "district": "북구",
    "dong": "",
    "lat": 35.1590015245917,
    "lng": 126.901465291369,
    "dataDate": "2025-09-24"
  },
  {
    "name": "차나라주유소",
    "category": "현대정유오일뱅크",
    "address": "광주 북구 동문대로 138",
    "district": "북구",
    "dong": "",
    "lat": 35.1749873990329,
    "lng": 126.927240839902,
    "dataDate": "2025-09-24"
  },
  {
    "name": "광주화물터미널주유소",
    "category": "현대정유오일뱅크",
    "address": "광주 북구 동문대로 288",
    "district": "북구",
    "dong": "",
    "lat": 35.1875022747294,
    "lng": 126.933998171429,
    "dataDate": "2025-09-24"
  },
  {
    "name": "도동재주유소",
    "category": "쌍용S-oil주유소",
    "address": "광주 북구 동문대로 410",
    "district": "북구",
    "dong": "",
    "lat": 35.1982306373564,
    "lng": 126.935316422247,
    "dataDate": "2025-09-24"
  },
  {
    "name": "서림주유소",
    "category": "GS주유소",
    "address": "광주 북구 무등로 126",
    "district": "북구",
    "dong": "",
    "lat": 35.1670557988575,
    "lng": 126.897663685673,
    "dataDate": "2025-09-24"
  },
  {
    "name": "동림주유소",
    "category": "현대정유오일뱅크",
    "address": "광주 북구 북문대로 257",
    "district": "북구",
    "dong": "",
    "lat": 35.1872295821045,
    "lng": 126.86418169873,
    "dataDate": "2025-09-24"
  },
  {
    "name": "빛고을로주유소",
    "category": "현대정유오일뱅크",
    "address": "광주 북구 빛고을대로 657",
    "district": "북구",
    "dong": "",
    "lat": 35.2205470697279,
    "lng": 126.868419918365,
    "dataDate": "2025-09-24"
  },
  {
    "name": "엠앤지 첨단북광주IC주유소",
    "category": "SK주유소",
    "address": "광주 북구 삼소로 318",
    "district": "북구",
    "dong": "",
    "lat": 35.2402529198082,
    "lng": 126.868698247452,
    "dataDate": "2025-09-24"
  },
  {
    "name": "남선석유 서방셀프주유소",
    "category": "현대정유오일뱅크",
    "address": "광주 북구 서암대로 323",
    "district": "북구",
    "dong": "",
    "lat": 35.1652707590146,
    "lng": 126.918999606992,
    "dataDate": "2025-09-24"
  },
  {
    "name": "무지개주유소 경훈에너지",
    "category": "주유소",
    "address": "광주 북구 서하로 237",
    "district": "북구",
    "dong": "",
    "lat": 35.1872972919496,
    "lng": 126.906584653936,
    "dataDate": "2025-09-24"
  },
  {
    "name": "코끼리주유소",
    "category": "SK주유소",
    "address": "광주 북구 서하로 77",
    "district": "북구",
    "dong": "",
    "lat": 35.1877225183738,
    "lng": 126.888732130476,
    "dataDate": "2025-09-24"
  },
  {
    "name": "매곡주유소",
    "category": "현대정유오일뱅크",
    "address": "광주 북구 서하로 86",
    "district": "북구",
    "dong": "",
    "lat": 35.1870745676652,
    "lng": 126.889853347815,
    "dataDate": "2025-09-24"
  },
  {
    "name": "플러스주유소",
    "category": "현대정유오일뱅크",
    "address": "광주 북구 설죽로 408",
    "district": "북구",
    "dong": "",
    "lat": 35.1955918196064,
    "lng": 126.900246652656,
    "dataDate": "2025-09-24"
  },
  {
    "name": "지산주유소",
    "category": "쌍용S-oil주유소",
    "address": "광주 북구 양산택지로 157",
    "district": "북구",
    "dong": "",
    "lat": 35.2173950598224,
    "lng": 126.878072969794,
    "dataDate": "2025-09-24"
  },
  {
    "name": "SK에너지 보람주유소",
    "category": "SK주유소",
    "address": "광주 북구 용봉로 24",
    "district": "북구",
    "dong": "",
    "lat": 35.1714077390146,
    "lng": 126.899499338525,
    "dataDate": "2025-09-24"
  },
  {
    "name": "세본주유소",
    "category": "SK주유소",
    "address": "광주 북구 용주로 21",
    "district": "북구",
    "dong": "",
    "lat": 35.1814856502277,
    "lng": 126.900398927746,
    "dataDate": "2025-09-24"
  },
  {
    "name": "일곡우리주유소",
    "category": "현대정유오일뱅크",
    "address": "광주 북구 우치로 595",
    "district": "북구",
    "dong": "",
    "lat": 35.2176058609217,
    "lng": 126.902739555212,
    "dataDate": "2025-09-24"
  },
  {
    "name": "패밀리셀프주유소",
    "category": "SK주유소",
    "address": "광주 북구 우치로 670",
    "district": "북구",
    "dong": "",
    "lat": 35.2241940250088,
    "lng": 126.902423144334,
    "dataDate": "2025-09-24"
  },
  {
    "name": "용전주유소",
    "category": "쌍용S-oil주유소",
    "address": "광주 북구 우치로 809",
    "district": "북구",
    "dong": "",
    "lat": 35.2344103916635,
    "lng": 126.894298383994,
    "dataDate": "2025-09-24"
  },
  {
    "name": "용전IC주유소",
    "category": "GS주유소",
    "address": "광주 북구 우치로 842",
    "district": "북구",
    "dong": "",
    "lat": 35.2376635865013,
    "lng": 126.893430760003,
    "dataDate": "2025-09-24"
  },
  {
    "name": "일곡주유소",
    "category": "쌍용S-oil주유소",
    "address": "광주 북구 우치로422번길 22",
    "district": "북구",
    "dong": "",
    "lat": 35.2045990214369,
    "lng": 126.902321946747,
    "dataDate": "2025-09-24"
  },
  {
    "name": "세오직영미래주유소",
    "category": "SK주유소",
    "address": "광주 북구 임방울대로 979",
    "district": "북구",
    "dong": "",
    "lat": 35.2149182570796,
    "lng": 126.86492703839,
    "dataDate": "2025-09-24"
  },
  {
    "name": "케이피유통 본촌주유소",
    "category": "GS주유소",
    "address": "광주 북구 하서로 530",
    "district": "북구",
    "dong": "",
    "lat": 35.2215212616774,
    "lng": 126.880515241803,
    "dataDate": "2025-09-24"
  },
  {
    "name": "북광주IC주유소",
    "category": "현대정유오일뱅크",
    "address": "광주 북구 하서로 678",
    "district": "북구",
    "dong": "",
    "lat": 35.2328830985237,
    "lng": 126.888126277182,
    "dataDate": "2025-09-24"
  },
  {
    "name": "돌고개주유소",
    "category": "현대정유오일뱅크",
    "address": "광주 서구 경열로 54",
    "district": "서구",
    "dong": "",
    "lat": 35.1504284852117,
    "lng": 126.892022904745,
    "dataDate": "2025-09-24"
  },
  {
    "name": "시민 주유소",
    "category": "GS주유소",
    "address": "광주 서구 눌재로 328",
    "district": "서구",
    "dong": "",
    "lat": 35.1107835873632,
    "lng": 126.825081794788,
    "dataDate": "2025-09-24"
  },
  {
    "name": "상록주유소",
    "category": "현대정유오일뱅크",
    "address": "광주 서구 상무대로 1180",
    "district": "서구",
    "dong": "",
    "lat": 35.1543533705204,
    "lng": 126.890618630932,
    "dataDate": "2025-09-24"
  },
  {
    "name": "컨벤션주유소",
    "category": "쌍용S-oil주유소",
    "address": "광주 서구 상무대로 714",
    "district": "서구",
    "dong": "",
    "lat": 35.1433432282525,
    "lng": 126.842405015751,
    "dataDate": "2025-09-24"
  },
  {
    "name": "운천주유소",
    "category": "현대정유오일뱅크",
    "address": "광주 서구 상무대로 758",
    "district": "서구",
    "dong": "",
    "lat": 35.145274841604,
    "lng": 126.846546292813,
    "dataDate": "2025-09-24"
  },
  {
    "name": "부일주유소",
    "category": "쌍용S-oil주유소",
    "address": "광주 서구 상무대로 933",
    "district": "서구",
    "dong": "",
    "lat": 35.1516281105698,
    "lng": 126.863924267202,
    "dataDate": "2025-09-24"
  },
  {
    "name": "골든타임주유소",
    "category": "쌍용S-oil주유소",
    "address": "광주 서구 상무대로1206번길 3",
    "district": "서구",
    "dong": "",
    "lat": 35.1553411757473,
    "lng": 126.89386736437,
    "dataDate": "2025-09-24"
  },
  {
    "name": "청정이엔지주유소",
    "category": "GS주유소",
    "address": "광주 서구 상무자유로 18",
    "district": "서구",
    "dong": "",
    "lat": 35.151153855524,
    "lng": 126.836137769533,
    "dataDate": "2025-09-24"
  },
  {
    "name": "일프로주유소",
    "category": "현대정유오일뱅크",
    "address": "광주 서구 운천로 206",
    "district": "서구",
    "dong": "",
    "lat": 35.1510260261497,
    "lng": 126.855687360983,
    "dataDate": "2025-09-24"
  },
  {
    "name": "우리셀프주유소",
    "category": "쌍용S-oil주유소",
    "address": "광주 서구 죽봉대로 24",
    "district": "서구",
    "dong": "",
    "lat": 35.1555832662964,
    "lng": 126.883735578852,
    "dataDate": "2025-09-24"
  },
  {
    "name": "서광주역주유소",
    "category": "주유소",
    "address": "광주 서구 풍서우로 152",
    "district": "서구",
    "dong": "",
    "lat": 35.127760886078,
    "lng": 126.845450416338,
    "dataDate": "2025-09-24"
  },
  {
    "name": "풍암대림주유소",
    "category": "쌍용S-oil주유소",
    "address": "광주 서구 풍서좌로 83",
    "district": "서구",
    "dong": "",
    "lat": 35.1210725540255,
    "lng": 126.858719684027,
    "dataDate": "2025-09-24"
  },
  {
    "name": "예향주유소",
    "category": "GS주유소",
    "address": "광주 서구 풍암신흥로 2",
    "district": "서구",
    "dong": "",
    "lat": 35.1190479306959,
    "lng": 126.863939081823,
    "dataDate": "2025-09-24"
  },
  {
    "name": "대광셀프주유소",
    "category": "GS주유소",
    "address": "광주 서구 하남대로 556",
    "district": "서구",
    "dong": "",
    "lat": 35.1731418024425,
    "lng": 126.853399993739,
    "dataDate": "2025-09-24"
  },
  {
    "name": "대동에너지주유소",
    "category": "현대정유오일뱅크",
    "address": "광주 서구 회재로 783",
    "district": "서구",
    "dong": "",
    "lat": 35.1162240292844,
    "lng": 126.853113907705,
    "dataDate": "2025-09-24"
  },
  {
    "name": "매월유통단지주유소",
    "category": "현대정유오일뱅크",
    "address": "광주 서구 회재로 746",
    "district": "서구",
    "dong": "",
    "lat": 35.1139837329135,
    "lng": 126.849841764626,
    "dataDate": "2025-09-24"
  },
  {
    "name": "마트몰 더믿음가득주유소",
    "category": "SK주유소",
    "address": "광주 북구 하남대로 777",
    "district": "북구",
    "dong": "",
    "lat": 35.1715284134687,
    "lng": 126.877987689642,
    "dataDate": "2025-09-24"
  }
]